City_ID,City,Lat,Lng,Max Temp,Humidity,Cloudiness,Wind Speed,Country,Date
0,hamilton,39.1834,-84.5333,30.54,60,40,3.09,US,1724770096
1,port mathurin,-19.6833,63.4167,21.26,66,87,12.78,MU,1724770178
2,tiksi,71.6872,128.8694,2.05,88,100,3.31,RU,1724770179
3,dzhangala,49.2167,50.3333,26.86,25,0,5.01,KZ,1724770180
4,puerto baquerizo moreno,-0.9,-89.6,18.55,94,75,5.14,EC,1724769945
5,blackmans bay,-43.0167,147.3167,7.07,91,100,1.34,AU,1724770182
6,albany,42.6001,-73.9662,24.34,74,1,0.45,US,1724770183
7,badger,64.8,-147.5333,7.98,85,75,3.09,US,1724770185
8,waitangi,-43.9535,-176.5597,11.57,98,100,3.58,NZ,1724770186
9,punta arenas,-53.15,-70.9167,5.06,81,40,9.26,CL,1724770099
10,grytviken,-54.2811,-36.5092,3.99,80,100,3.81,GS,1724770188
11,port-aux-francais,-49.35,70.2167,3.12,74,5,8.65,TF,1724770189
12,kokuy,52.2037,117.5529,15.62,96,58,1.97,RU,1724770191
13,dingzhou,38.5131,114.9956,20.02,83,2,2.09,CN,1724770193
14,edinburgh of the seven seas,-37.0676,-12.3116,10.39,68,100,8.17,SH,1724770194
15,bredasdorp,-34.5322,20.0403,8.8,84,100,12.69,ZA,1724770195
16,christchurch,-43.5333,172.6333,8.86,86,17,2.68,NZ,1724770026
17,martuk,50.7475,56.5056,20.68,44,0,4.22,KZ,1724770197
18,balayan,13.9833,120.7333,25.25,93,100,1.48,PH,1724770198
19,at taj,24.2049,23.2857,39.64,19,23,1.18,LY,1724770199
20,macheng,31.1783,115.0319,23.3,89,100,2.13,CN,1724770200
21,lebu,-37.6167,-73.65,9.32,66,56,4.68,CL,1724770202
22,udachny,66.4167,112.4,9.42,70,89,0.94,RU,1724770203
23,mirnyy,62.5353,113.9611,9.01,96,100,3.71,RU,1724770204
24,progreso,21.2833,-89.6667,30.54,78,100,1.96,MX,1724770134
25,yung shue wan,22.2333,114.1167,30.93,78,94,0.89,HK,1724770206
26,greymouth,-42.4667,171.2,8.08,91,49,0.69,NZ,1724770207
27,iqaluit,63.7506,-68.5145,4.85,100,100,2.06,CA,1724770208
28,margaret river,-33.95,115.0667,12.84,65,39,4.13,AU,1724770209
29,adamstown,-25.066,-130.1015,19.67,69,100,9.21,PN,1724770022
30,hobyo,5.3505,48.5268,25.82,83,3,12.22,SO,1724770212
31,kasongo-lunda,-6.4667,16.8167,39.06,8,6,1.1,CD,1724770213
32,sisimiut,66.9395,-53.6735,6.8,83,100,1.67,GL,1724770214
33,iaciara,-14.0958,-46.6317,34.73,19,0,2.22,BR,1724770215
34,labrador city,52.9463,-66.9114,20.95,63,75,12.52,CA,1724770216
35,kodiak,57.79,-152.4072,11.73,94,75,4.12,US,1724770217
36,thompson,55.7435,-97.8558,11.09,76,20,2.57,CA,1724770219
37,marsh harbour,26.5412,-77.0636,28.85,75,68,5.55,BS,1724770092
38,puerto natales,-51.7236,-72.4875,7.25,57,75,4.63,CL,1724770221
39,filadelfia,39.9523,-75.1638,28.61,68,0,1.54,US,1724770069
40,olonkinbyen,70.9221,-8.7187,3.22,86,100,3.3,SJ,1724770223
41,ushuaia,-54.8,-68.3,4.81,70,20,2.06,AR,1724770224
42,hawaiian paradise park,19.5933,-154.9731,22.16,98,100,1.54,US,1724770225
43,enewetak,11.3474,162.3373,28.87,77,100,7.9,MH,1724770226
44,chibougamau,49.9168,-74.3659,18.41,96,93,2.92,CA,1724770228
45,nova sintra,14.8667,-24.7167,27.13,74,100,2.09,CV,1724770229
46,susuman,62.7833,148.1667,8.83,86,100,1.56,RU,1724770230
47,barra da estiva,-13.6261,-41.3269,22.33,51,55,6.6,BR,1724770231
48,bethel,41.3712,-73.414,26.6,73,0,0.0,US,1724770071
49,timmins,48.4669,-81.3331,18.9,100,100,3.6,CA,1724770067
50,jamestown,42.097,-79.2353,26.68,74,75,2.06,US,1724770236
51,braunlage,51.7333,10.6167,24.94,39,11,2.91,DE,1724770237
52,kharabali,47.4196,47.2568,29.37,27,0,7.42,RU,1724770238
53,angaur state,6.906,134.13,28.85,72,89,0.74,PW,1724770239
54,st. john's,47.5649,-52.7093,17.86,94,100,3.6,CA,1724770053
55,avarua,-21.2078,-159.775,23.03,83,75,10.8,CK,1724770241
56,zahedan,29.4963,60.8629,29.33,11,0,2.83,IR,1724770242
57,sinop,41.7711,34.8709,20.93,85,50,2.74,TR,1724770244
58,ibi,38.6253,-0.5723,24.95,46,38,3.77,ES,1724770245
59,sola,-13.8833,167.55,25.39,66,100,10.05,VU,1724770246
60,brisas de zicatela,15.8369,-97.0419,26.29,94,20,4.12,MX,1724770247
61,rongelap,11.1635,166.8941,28.48,82,100,9.07,MH,1724770248
62,port elizabeth,-33.918,25.5701,21.16,79,0,10.29,ZA,1724770249
63,constitucion,-35.3333,-72.4167,13.19,59,22,1.5,CL,1724770250
64,qaisumah,28.3112,46.1273,44.98,9,20,9.26,SA,1724770251
65,wailua homesteads,22.0669,-159.378,25.44,71,75,6.69,US,1724770253
66,sylva,58.0348,56.7635,18.0,76,12,2.02,RU,1724770254
67,east london,-33.0153,27.9116,25.52,47,0,5.14,ZA,1724770255
68,huarmey,-10.0681,-78.1522,19.06,81,86,3.53,PE,1724770256
69,horjul,46.0236,14.2992,27.33,64,19,4.14,SI,1724770257
70,cabo san lucas,22.8909,-109.9124,30.42,50,4,1.08,MX,1724770258
71,bangar,16.8936,120.4243,25.98,87,67,2.68,PH,1724770259
72,belmonte,-15.8631,-38.8828,26.77,57,53,3.53,BR,1724770260
73,kidal,18.4411,1.4078,39.46,27,100,6.65,ML,1724770262
74,longyearbyen,78.2186,15.6401,5.61,85,100,4.31,SJ,1724770263
75,klyuchi,52.2667,79.1667,17.24,59,90,2.39,RU,1724770264
76,taroa,8.7058,171.2275,28.63,79,100,6.47,MH,1724770265
77,puerto ayora,-0.7393,-90.3518,18.64,98,98,0.89,EC,1724770266
78,berdigestyakh,62.0989,126.6992,6.83,62,100,0.66,RU,1724770267
79,la'ie,21.6477,-157.9253,25.06,77,92,2.24,US,1724770015
80,stanley,54.868,-1.6985,17.01,81,20,5.66,GB,1724770269
81,nouadhibou,20.931,-17.0347,29.99,66,46,5.14,MR,1724770271
82,barjala,23.6167,91.3667,25.76,92,99,2.33,IN,1724770272
83,la ronge,55.1001,-105.2842,14.14,67,40,6.69,CA,1724770273
84,bandon,51.7469,-8.7425,18.77,71,23,7.04,IE,1724770274
85,saint-pierre,-21.3393,55.4781,20.82,78,75,9.77,RE,1724770275
86,gebeit,21.0667,36.3167,34.82,27,97,3.43,SD,1724770276
87,calgary,51.0501,-114.0853,17.58,53,75,3.09,CA,1724770085
88,machico,32.7,-16.7667,26.51,70,40,2.57,PT,1724770279
89,iskateley,67.6803,53.1512,17.73,61,98,3.7,RU,1724770280
90,tarauaca,-8.1614,-70.7656,31.06,27,36,1.11,BR,1724770281
91,tongliao,43.6125,122.2653,18.76,77,0,2.09,CN,1724770282
92,uturoa,-16.7333,-151.4333,24.2,71,100,8.18,PF,1724770283
93,lazaro cardenas,17.9583,-102.2,28.82,73,66,1.43,MX,1724770285
94,lorengau,-2.0226,147.2712,27.21,82,51,3.76,PG,1724770286
95,tulagi,-9.0996,160.1476,27.56,81,100,13.25,SB,1724770287
96,codrington,-38.2667,141.9667,13.26,88,100,10.7,AU,1724770288
97,papatowai,-46.5619,169.4708,9.07,93,46,2.07,NZ,1724770289
98,batyrevo,55.0675,47.6111,25.49,48,4,1.57,RU,1724770291
99,northam,51.0333,-4.2167,18.12,88,99,5.04,GB,1724770292
100,tobelo,1.7284,128.0095,26.98,80,7,1.2,ID,1724770293
101,kavaratti,10.5669,72.642,27.41,86,91,4.53,IN,1724770294
102,isangel,-19.55,169.2667,20.23,75,0,4.45,VU,1724770295
103,invercargill,-46.4,168.35,7.79,93,60,0.45,NZ,1724770296
104,mwene-ditu,-7.0,23.45,33.4,15,3,2.49,CD,1724770297
105,bilibino,68.0546,166.4372,6.25,94,100,1.19,RU,1724770299
106,korla,41.7597,86.1469,32.05,22,63,1.22,CN,1724770300
107,arraial do cabo,-22.9661,-42.0278,20.92,52,0,3.09,BR,1724770301
108,hermanus,-34.4187,19.2345,8.78,77,100,16.53,ZA,1724770302
109,aasiaat,68.7098,-52.8699,2.23,98,100,2.92,GL,1724770303
110,fale old settlement,-9.3852,-171.2468,27.44,77,15,4.03,TK,1724770304
111,ngama,11.7833,17.1667,30.71,60,100,3.39,TD,1724770305
112,atafu village,-8.5421,-172.5159,27.78,76,71,5.16,TK,1724770306
113,dudinka,69.4058,86.1778,14.02,95,96,1.37,RU,1724770308
114,anadyr,64.75,177.4833,1.28,93,0,1.0,RU,1724770309
115,coquimbo,-29.9533,-71.3436,12.21,85,100,2.06,CL,1724770310
116,capo d'orlando,38.1435,14.7305,27.47,64,52,5.83,IT,1724770311
117,port alfred,-33.5906,26.891,19.33,62,0,10.39,ZA,1724770312
118,vorgashor,67.5833,63.95,16.21,61,96,2.79,RU,1724770313
119,polyarnyy,69.1989,33.4478,14.86,57,79,11.75,RU,1724770314
120,serdar,38.9764,56.2757,31.51,32,29,2.09,TM,1724770315
121,troy,42.6056,-83.1499,23.8,88,0,2.06,US,1724770317
122,new norfolk,-42.7826,147.0587,7.18,97,100,2.55,AU,1724770318
123,mhangura,-16.8939,30.1683,27.36,17,0,1.54,ZW,1724770319
124,carnarvon,-24.8667,113.6333,19.57,70,0,6.86,AU,1724770320
125,plettenberg bay,-34.0527,23.3716,17.76,55,81,11.43,ZA,1724770321
126,kununurra,-15.7667,128.7333,22.99,64,75,1.03,AU,1724770322
127,tofol,5.3248,163.0078,27.09,79,98,1.39,FM,1724770323
128,zonguldak,41.25,31.8333,23.95,60,8,3.81,TR,1724770325
129,kapuskasing,49.4169,-82.4331,16.05,88,100,5.14,CA,1724770134
130,praia da vitoria,38.7333,-27.0667,26.14,65,20,5.52,PT,1724770327
131,college,64.8569,-147.8028,8.03,86,75,3.09,US,1724770328
132,khvoynaya,58.9,34.5333,20.91,52,100,2.3,RU,1724770329
133,shimoda,34.6667,138.95,25.67,89,94,2.58,JP,1724770330
134,tarawa,1.419,172.984,29.05,84,40,3.09,KI,1724770331
135,yellowknife,62.456,-114.3525,16.34,90,75,3.6,CA,1724770332
136,ust-nera,64.5667,143.2,4.84,94,100,0.71,RU,1724770335
137,ribeira grande,38.5167,-28.7,26.54,53,20,5.36,PT,1724770336
138,weihai,37.5017,122.1136,23.52,76,0,4.29,CN,1724770337
139,kem',64.9555,34.5793,19.5,48,19,5.77,RU,1724770338
140,san pedro pochutla,15.7333,-96.4667,32.06,58,71,1.05,MX,1724770339
141,sernancelhe,40.921,-7.5123,32.92,11,0,4.71,PT,1724770340
142,saudarkrokur,65.7461,-19.6394,10.61,69,92,2.58,IS,1724770342
143,marsa alam,25.0757,34.8918,36.45,34,6,7.69,EG,1724770343
144,cole harbour,44.6724,-63.4751,21.65,85,40,2.57,CA,1724770344
145,toliara,-23.35,43.6667,23.87,65,0,4.82,MG,1724770345
146,manicore,-5.8092,-61.3003,36.66,25,2,1.65,BR,1724770346
147,hithadhoo,-0.6,73.0833,28.85,73,44,4.21,MV,1724770347
148,remire-montjoly,4.9167,-52.2667,32.02,62,40,1.54,GF,1724770348
149,warrnambool,-38.3833,142.4833,12.93,90,100,9.1,AU,1724770350
150,champerico,14.3,-91.9167,27.81,73,66,1.62,GT,1724770351
151,shahrud,36.4182,54.9763,26.73,46,0,7.75,IR,1724770352
152,khandyga,62.6667,135.6,7.8,78,94,1.72,RU,1724770353
153,tsiombe,-25.3,45.4833,22.84,62,0,3.15,MG,1724770354
154,zhangye,38.9342,100.4517,26.11,37,84,1.41,CN,1724770355
155,cabanas,22.9758,-82.9219,29.75,73,35,3.54,CU,1724770356
156,kapa'a,22.0752,-159.319,26.18,71,75,6.69,US,1724770357
157,quellon,-43.1167,-73.6167,7.79,74,75,0.37,CL,1724770359
158,port lincoln,-34.7333,135.8667,14.57,69,33,11.81,AU,1724770360
159,alice springs,-23.7,133.8833,17.75,45,12,2.57,AU,1724770361
160,grimstad,58.3405,8.5934,17.43,84,100,6.98,NO,1724770362
161,ovalle,-30.5983,-71.2003,18.37,37,91,1.45,CL,1724770162
162,cidade velha,14.9167,-23.6167,30.26,66,75,6.17,CV,1724770364
163,west island,-12.1568,96.8225,26.99,83,90,7.72,CC,1724770365
164,zhanaozen,43.3,52.8,30.86,17,0,5.41,KZ,1724770367
165,opuwo,-18.0607,13.84,32.3,7,0,2.26,NA,1724770368
166,tamanrasset,22.785,5.5228,34.95,16,40,3.09,DZ,1724770369
167,takoradi,4.8845,-1.7554,23.6,92,100,4.69,GH,1724770370
168,zadar,44.1197,15.2422,34.34,31,0,3.09,HR,1724770371
169,panchagarh,26.3313,88.562,28.19,73,11,2.06,BD,1724770372
170,douane,36.4477,10.7557,32.02,45,48,4.61,TN,1724770374
171,saipan,15.1355,145.701,27.39,89,0,2.57,MP,1724770376
172,acarau,-2.8856,-40.12,31.82,52,7,6.69,BR,1724770377
173,concepcion,-36.827,-73.0498,8.89,71,0,3.09,CL,1724770172
174,vilyuchinsk,52.9306,158.4028,12.15,88,100,2.04,RU,1724770380
175,inverness,57.4791,-4.224,21.02,68,20,11.83,GB,1724770381
176,melfort,52.8667,-104.6177,13.07,76,21,6.69,CA,1724770382
177,pangody,65.85,74.4859,16.02,70,100,3.34,RU,1724770384
178,lashio,22.9333,97.75,20.76,99,79,0.56,MM,1724770385
179,bom jesus,-9.0744,-44.3586,36.86,17,68,3.86,BR,1724770386
180,axim,4.8699,-2.2405,23.48,93,100,4.27,GH,1724770387
181,santa marta,11.2408,-74.199,31.03,66,20,2.57,CO,1724770351
182,cushing,35.9851,-96.767,30.37,44,0,3.07,US,1724770389
183,nehe,48.4833,124.8333,16.51,79,36,3.39,CN,1724770390
184,pionerskiy,54.9508,20.2275,21.91,59,4,2.05,RU,1724770391
185,motueka,-41.1333,173.0167,10.61,95,100,1.76,NZ,1724770393
186,ebon,4.582,168.6964,28.78,76,78,6.02,MH,1724770394
187,ilulissat,69.2167,-51.1,4.01,100,75,1.54,GL,1724770395
188,afaahiti,-17.75,-149.2833,21.57,75,97,8.24,PF,1724770396
189,pechora,65.1472,57.2244,18.72,60,16,2.56,RU,1724770397
190,coyuca de benitez,17.0333,-100.0667,29.14,76,90,0.62,MX,1724770398
191,isafjordur,66.0755,-23.124,9.02,76,0,3.09,IS,1724770399
192,fort st. john,56.2499,-120.8529,9.94,93,75,2.06,CA,1724770401
193,portstewart,55.1813,-6.714,16.57,76,70,4.95,GB,1724770402
194,tsarevo,42.1667,27.85,27.44,52,0,3.08,BG,1724770403
195,conduaga,8.862,117.4893,26.18,90,100,2.31,PH,1724770404
196,kyshtovka,56.555,76.6271,10.88,94,93,2.75,RU,1724770263
197,vernon,50.2581,-119.2691,14.86,93,92,0.51,CA,1724770406
198,mossel bay,-34.1831,22.146,19.96,64,98,14.62,ZA,1724770407
199,chui,-33.6971,-53.4616,15.17,62,0,1.05,UY,1724770408
200,akureyri,65.6835,-18.0878,12.96,54,75,2.06,IS,1724770410
201,bhag,29.0415,67.8239,29.85,61,82,4.52,PK,1724770411
202,zabid,14.1951,43.3152,32.84,56,31,8.12,YE,1724770412
203,lethem,3.3803,-59.7968,24.76,87,100,0.35,GY,1724770413
204,whitehorse,60.7161,-135.0538,5.43,80,75,4.63,CA,1724770230
205,vila velha,-20.3297,-40.2925,20.97,75,75,6.17,BR,1724770194
206,visakhapatnam,17.69,83.2093,29.94,79,75,1.03,IN,1724770417
207,sorong,-0.8833,131.25,25.97,84,43,2.38,ID,1724770419
208,kushikino,31.7167,130.2667,26.94,78,60,8.82,JP,1724770422
209,ta`u,-14.2336,-169.5144,25.52,83,15,4.62,AS,1724770424
210,nuuk,64.1835,-51.7216,8.34,81,75,2.06,GL,1724770426
211,qaqortoq,60.7167,-46.0333,6.78,68,78,2.53,GL,1724770427
212,zhuanghe,39.7008,122.9911,21.27,81,0,3.14,CN,1724770428
213,chonchi,-42.6128,-73.8092,10.07,64,49,1.0,CL,1724770429
214,howrah,22.5892,88.3103,28.0,89,40,0.0,IN,1724770430
215,danielskuil,-28.1887,23.5395,21.78,11,0,11.43,ZA,1724770431
216,varallo,45.8139,8.259,29.01,57,13,1.85,IT,1724770432
217,lompoc,34.6391,-120.4579,12.4,98,100,0.0,US,1724770433
218,pavlovsk,50.4578,40.1081,31.28,24,11,5.06,RU,1724770435
219,grand-lahou,5.1367,-5.0242,23.67,91,100,5.79,CI,1724770436
220,ceeldheer,3.8488,47.1806,27.01,74,17,8.88,SO,1724770437
221,reyes,-14.3167,-67.3833,24.09,56,20,0.0,BO,1724770438
222,alaghsas,17.0187,8.0168,29.94,45,75,13.89,NE,1724770439
223,tralee,52.2704,-9.7026,18.14,88,75,3.6,IE,1724770440
224,tuy hoa,13.0833,109.3,25.25,91,83,2.79,VN,1724770441
225,el calafate,-50.3408,-72.2768,2.12,68,100,0.74,AR,1724770438
226,westport,41.1415,-73.3579,26.97,69,0,0.0,US,1724770444
227,murghob,38.1702,73.9667,13.83,16,1,3.53,TJ,1724770445
228,georgetown,5.4112,100.3354,25.97,88,20,4.12,MY,1724770446
229,san pedro,14.35,121.0167,26.26,95,99,1.79,PH,1724770232
230,arish,31.1316,33.7984,32.1,58,0,5.14,EG,1724770448
231,saint-louis,16.3333,-15.0,36.22,43,31,5.01,SN,1724770449
232,birao,10.2849,22.7882,29.26,71,51,1.92,CF,1724770450
233,patterson,37.4716,-121.1297,16.97,33,0,1.23,US,1724770451
234,hammerfest,70.6634,23.6821,11.25,82,75,12.35,NO,1724770453
235,hoshiarpur,31.5322,75.9172,26.76,75,33,2.78,IN,1724770454
236,bukama,-9.2,25.85,35.8,14,1,1.38,CD,1724770455
237,tucupita,9.0622,-62.051,32.34,58,17,1.49,VE,1724770456
238,pisco,-13.7,-76.2167,17.23,82,75,2.06,PE,1724770457
239,prince edward,44.0001,-77.2495,26.01,76,1,0.89,CA,1724770458
240,changtu,42.7788,124.0955,18.17,88,0,2.17,CN,1724770459
241,rio grande,-32.035,-52.0986,14.49,74,55,1.48,BR,1724770218
242,tagab,34.855,69.6492,23.02,65,0,3.36,AF,1724770462
243,tazovsky,67.4667,78.7,12.61,89,35,2.23,RU,1724770463
244,mount gambier,-37.8333,140.7667,11.92,89,100,8.41,AU,1724770465
245,mahajanga,-15.7167,46.3167,30.01,48,0,4.12,MG,1724770466
246,wainwright,52.839,-110.8572,19.16,39,38,7.74,CA,1724770467
247,tolanaro,-25.0319,46.9987,24.04,73,20,11.83,MG,1724770468
248,baiti,13.745,-14.7482,31.34,66,100,3.55,SN,1724770470
249,west bay,19.3667,-81.4167,32.25,66,40,3.6,KY,1724770471
250,korsakov,46.6328,142.7813,18.91,98,100,0.76,RU,1724770472
251,luderitz,-26.6481,15.1594,16.55,69,0,8.89,NA,1724770473
252,gadzhiyevo,69.2551,33.3362,15.22,57,90,11.98,RU,1724770474
253,ardestan,33.3761,52.3694,37.37,9,44,4.69,IR,1724770476
254,ryotsu-minato,38.0833,138.4333,23.16,92,97,0.72,JP,1724770478
255,kudligi,14.9,76.3833,23.17,82,80,7.36,IN,1724770479
256,jiangzi,28.95,89.6333,8.42,60,67,1.6,CN,1724770480
257,callao,-12.0667,-77.15,15.16,88,100,3.09,PE,1724770481
258,malur,13.0075,77.9378,24.24,67,93,5.82,IN,1724770482
259,nemuro,43.3236,145.575,19.75,98,100,11.75,JP,1724770483
260,cururupu,-1.8283,-44.8683,28.8,68,99,2.25,BR,1724770484
261,ancud,-41.8697,-73.8203,7.69,72,53,2.88,CL,1724770485
262,yinchuan,38.4681,106.2731,24.89,53,54,5.35,CN,1724770487
263,carauari,-4.8828,-66.8958,32.7,30,1,1.95,BR,1724770488
264,carutapera,-1.195,-46.02,29.88,68,94,4.21,BR,1724770394
265,kuanda,56.3161,116.0806,12.03,93,100,2.13,RU,1724770490
266,williams lake,52.1415,-122.1445,8.92,96,100,1.54,CA,1724770322
267,yurga,55.7231,84.8861,11.94,95,37,2.81,RU,1724770492
268,hilo,19.7297,-155.09,22.28,95,100,1.54,US,1724770336
269,eagle point,42.4726,-122.8028,15.31,85,0,1.54,US,1724770494
270,kirensk,57.7853,108.1119,13.48,89,100,5.01,RU,1724770496
271,cidreira,-30.1811,-50.2056,16.12,68,7,2.05,BR,1724770399
272,oberstdorf,47.4,10.2833,21.37,75,7,1.79,DE,1724770499
273,zelenogorsk,56.1147,94.5861,12.17,92,75,1.8,RU,1724770500
274,khamis mushait,18.3064,42.7292,19.34,82,75,8.75,SA,1724770501
275,kailua-kona,19.6406,-155.9956,22.98,83,75,1.54,US,1724770502
276,erdenet,49.0333,104.0833,12.71,98,33,2.1,MN,1724770504
277,nguigmi,14.2495,13.1092,31.3,55,89,5.38,NE,1724770505
278,colonia,50.9333,6.95,28.58,38,0,2.06,DE,1724770506
279,nova vicosa,-17.8919,-39.3719,24.07,75,82,8.06,BR,1724770334
280,catalao,-18.1658,-47.9464,29.6,26,0,1.77,BR,1724770273
281,colby,39.3958,-101.0524,22.83,79,75,1.34,US,1724770509
282,ahoada,5.074,6.6535,29.16,71,98,4.06,NG,1724770510
283,notre-dame-des-prairies,46.0501,-73.4324,25.03,76,8,1.79,CA,1724770512
284,freetown,8.484,-13.2299,27.84,89,75,9.26,SL,1724770513
285,eraan,9.0629,117.7016,26.08,91,100,3.54,PH,1724770514
286,ambon,-3.6954,128.1814,26.6,95,40,1.54,ID,1724770515
287,oranjemund,-28.55,16.4333,15.8,71,86,5.58,NA,1724770516
288,laojunmiao,39.8333,97.7333,21.68,42,4,3.23,CN,1724770517
289,malmberget,67.1753,20.6549,13.31,51,40,8.23,SE,1724770518
290,pascagoula,30.3658,-88.5561,32.0,58,0,2.57,US,1724770519
291,puerto armuelles,8.2833,-82.8667,23.94,96,66,1.34,PA,1724770521
292,adler,43.43,39.92,27.09,74,20,6.0,RU,1724770522
293,lively,46.4334,-81.1498,24.45,80,100,2.76,CA,1724770523
294,tosontsengel,48.7567,98.2839,14.44,39,100,0.92,MN,1724770525
295,port augusta,-32.5,137.7667,14.89,41,0,2.66,AU,1724770526
296,fort bragg,35.139,-79.006,29.9,63,0,2.06,US,1724770527
297,padangsidempuan,1.3667,99.2667,21.05,99,100,2.12,ID,1724770529
298,laguna,38.421,-121.4238,21.93,64,0,0.0,US,1724770530
299,bodo,67.28,14.405,12.19,79,75,15.95,NO,1724770531
300,happy valley-goose bay,53.3168,-60.3315,27.17,44,75,8.23,CA,1724770532
301,severo-yeniseyskiy,60.3725,93.0408,11.55,99,100,1.09,RU,1724770533
302,bardai,11.65,7.2333,27.44,69,89,5.34,NG,1724770534
303,catabola,-12.15,17.2833,30.41,9,5,2.31,AO,1724770535
304,ismailia,30.6043,32.2723,36.04,44,0,4.12,EG,1724770536
305,tenno,39.9,139.9667,23.51,88,100,1.99,JP,1724770538
306,kilimatinde,-5.85,34.95,27.13,38,91,1.53,TZ,1724770539
307,tura,25.5198,90.2201,24.23,95,20,1.67,IN,1724770540
308,edson,53.5835,-116.4356,11.08,93,100,2.57,CA,1724770541
309,talnakh,69.4865,88.3972,13.55,96,99,1.19,RU,1724770542
310,villa gesell,-37.2639,-56.973,12.3,62,43,4.35,AR,1724770543
311,richards bay,-28.783,32.0377,28.79,37,0,3.76,ZA,1724770544
312,tartouss,34.889,35.8866,29.03,63,0,3.16,SY,1724770546
313,dalandzadgad,43.5708,104.425,26.0,29,98,1.53,MN,1724770548
314,pangoa,-12.1167,-73.0,27.36,51,28,1.56,PE,1724770549
315,anton lizardo,19.05,-95.9833,26.79,87,100,3.42,MX,1724770551
316,denov,38.2667,67.9,29.4,15,0,2.43,UZ,1724770552
317,pusad,19.9,77.5833,25.7,78,13,2.98,IN,1724770554
318,minas de marcona,-15.2119,-75.1103,14.29,67,61,5.74,PE,1724770555
319,upper grand lagoon,30.1633,-85.7408,31.71,79,40,2.24,US,1724770556
320,thunder bay,48.4001,-89.3168,20.99,64,75,4.63,CA,1724770291
321,yokadouma,3.5167,15.05,28.17,64,99,1.09,CM,1724770558
322,kaka,37.3482,59.6143,32.24,14,40,0.81,TM,1724770559
323,kambah,-35.3862,149.058,13.31,80,0,5.66,AU,1724770560
324,leava,-14.3,-178.1667,25.41,82,66,8.29,WF,1724770562
325,kruisfontein,-34.0033,24.7314,19.71,38,67,10.66,ZA,1724770563
326,chita,52.0333,113.55,14.94,63,1,4.0,RU,1724770564
327,swiecie,53.4095,18.4474,27.09,28,0,1.79,PL,1724770565
328,sitka,57.0531,-135.33,10.94,82,75,0.0,US,1724770566
329,broome,42.2506,-75.833,24.64,80,0,2.57,US,1724770567
330,san antonio de pale,-1.4014,5.6325,23.53,81,84,6.05,GQ,1724770568
331,nadi,-17.8,177.4167,20.0,83,20,2.57,FJ,1724770569
332,walvis bay,-22.9575,14.5053,18.4,62,7,11.95,NA,1724770571
333,matamba,-8.9833,33.9667,19.64,49,82,0.69,TZ,1724770572
334,cabrero,-37.0333,-72.4,10.45,57,14,3.68,CL,1724770573
335,pamandzi,-12.7967,45.2794,26.88,69,100,1.54,YT,1724770574
336,narasannapeta,18.4167,84.05,27.92,80,100,1.49,IN,1724770575
337,sorso,40.8,8.5772,28.95,44,14,4.58,IT,1724770576
338,yerofey pavlovich,53.9667,121.9667,13.8,84,59,1.41,RU,1724770577
339,mirny,62.5353,113.9611,9.01,96,100,3.71,RU,1724770579
340,namibe,-15.1961,12.1522,19.7,77,26,4.85,AO,1724770580
341,usinsk,65.9939,57.5281,19.57,54,49,4.51,RU,1724770581
342,nantucket,41.2835,-70.0995,20.06,94,75,3.09,US,1724770582
343,temiskaming shores,47.4938,-79.7153,24.89,62,92,4.23,CA,1724770583
344,haiku-pauwela,20.9219,-156.3051,22.36,85,20,3.13,US,1724770584
345,kurumkan,54.3,110.3,13.85,72,46,2.79,RU,1724770585
346,armacao de buzios,-22.7469,-41.8817,21.03,52,0,4.97,BR,1724770586
347,guankou,28.15,113.6333,24.72,86,26,1.48,CN,1724770588
348,mizdah,31.4451,12.9801,35.12,18,31,1.82,LY,1724770589
349,avare,-23.0986,-48.9258,20.57,16,0,3.96,BR,1724770590
350,kosong,38.3788,128.4676,22.33,92,55,0.15,KR,1724770591
351,dwarka,22.2394,68.9678,27.0,92,100,16.5,IN,1724770592
352,ciudad lazaro cardenas,17.9583,-102.2,28.82,73,66,1.43,MX,1724770593
353,marshfield,44.6689,-90.1718,22.97,83,100,7.2,US,1724770361
354,strugi-krasnyye,58.2675,29.1114,20.19,53,100,2.05,RU,1724770596
355,pandan,14.0453,124.1694,26.37,85,97,4.49,PH,1724770597
356,cadale,2.7603,46.3222,26.45,81,31,6.85,SO,1724770598
357,linden,6.0,-58.3,34.32,46,27,0.57,GY,1724770599
358,labytnangi,66.6572,66.4183,16.38,64,32,2.42,RU,1724770600
359,kerikeri,-35.2268,173.9474,8.28,92,100,1.67,NZ,1724770601
360,vadso,70.0744,29.7487,14.09,58,75,12.86,NO,1724770602
361,ust'-ilimsk,58.0006,102.6619,13.0,90,100,5.2,RU,1724770603
362,chazuta,-6.5742,-76.1367,26.47,49,96,0.57,PE,1724770605
363,rosarito,32.3333,-117.0333,19.51,78,5,1.61,MX,1724770606
364,tabas,33.5959,56.9244,38.11,11,0,4.19,IR,1724770607
365,nikolayevsk-on-amure,53.1406,140.73,13.5,91,0,0.89,RU,1724770608
366,anori,-3.7728,-61.6442,35.67,30,4,2.13,BR,1724770609
367,bonthe,7.5264,-12.505,26.93,81,99,5.71,SL,1724770610
368,san nicolas de los arroyos,-33.3358,-60.2252,17.98,39,0,1.73,AR,1724770611
369,yengema,8.7167,-11.1667,26.43,91,93,1.7,SL,1724770612
370,cannes,43.55,7.0167,31.99,45,0,2.57,FR,1724770614
371,olive branch,34.9618,-89.8295,32.06,44,0,2.57,US,1724770615
372,novaya igirma,57.1334,103.9112,14.24,72,100,4.63,RU,1724770616
373,qingdao,36.0986,120.3719,21.78,94,0,4.0,CN,1724770617
374,dauphin,51.1494,-100.0502,11.08,93,0,1.03,CA,1724770618
375,burang,30.25,81.1667,10.61,66,93,2.87,CN,1724770619
376,port blair,11.6667,92.75,26.02,89,100,3.6,IN,1724770620
377,merowe,18.4833,31.8167,35.89,38,74,2.89,SD,1724770622
378,jinghong,21.991,100.7341,21.78,98,69,0.97,CN,1724770623
379,mount isa,-20.7333,139.5,14.87,55,0,0.0,AU,1724770624
380,mao,39.8885,4.2658,28.31,47,0,2.57,ES,1724770371
381,sungailiat,-1.85,106.1333,26.76,80,66,4.26,ID,1724770626
382,vakarai,55.6035,23.8213,20.89,58,0,3.13,LT,1724770627
383,bengkulu,-3.8004,102.2655,24.52,92,100,2.55,ID,1724770628
384,kudahuvadhoo,2.6708,72.8944,28.82,72,38,2.6,MV,1724770629
385,utrik,11.2278,169.8474,28.43,81,99,8.18,MH,1724770631
386,aras-asan,8.8908,126.3033,26.14,86,100,1.58,PH,1724770632
387,maintirano,-18.0667,44.0167,25.09,72,6,4.62,MG,1724770633
388,sandnessjoen,66.0217,12.6316,13.06,76,75,9.26,NO,1724770634
389,kovdor,67.5662,30.4758,13.69,57,9,8.05,RU,1724770635
390,prado,-17.3411,-39.2208,23.19,86,95,6.19,BR,1724770636
391,strezhevoy,60.7333,77.5889,16.06,73,78,2.89,RU,1724770637
392,anshan,41.1236,122.99,19.27,89,0,2.54,CN,1724770639
393,quixada,-4.9714,-39.0153,33.81,32,31,3.97,BR,1724770641
394,buka,40.8108,69.1986,24.59,16,33,3.65,UZ,1724770642
395,houlton,46.1262,-67.8403,24.78,65,0,2.57,US,1724770644
396,padang,-0.9492,100.3543,23.03,95,100,4.05,ID,1724770633
397,eldoret,0.5204,35.2699,18.06,76,63,1.52,KE,1724770647
398,hadibu,12.65,54.0333,27.94,73,100,6.64,YE,1724770648
399,enriquillo,17.9,-71.2333,30.42,57,20,5.14,DO,1724770649
400,nar'yan-mar,67.6713,53.087,17.81,60,98,3.87,RU,1724770650
401,narvik,68.4384,17.4272,11.26,88,100,8.39,NO,1724770651
402,casper,42.8666,-106.3131,16.01,66,0,4.12,US,1724770652
403,belel,7.05,14.4333,22.98,70,10,2.64,CM,1724770654
404,anloga,5.7947,0.8973,25.31,85,73,7.95,GH,1724770655
405,lihue,21.9789,-159.3672,25.77,73,75,6.69,US,1724770656
406,machalpur,24.1333,76.3,24.43,90,40,3.54,IN,1724770657
407,al harithah,30.7186,47.7208,43.98,17,0,5.14,IQ,1724770658
408,gracias,14.5833,-88.5833,23.16,82,91,0.97,HN,1724770659
409,arafat,39.0344,44.6198,25.07,26,0,3.42,IR,1724770660
410,bairnsdale,-37.8333,147.6167,20.59,42,93,2.68,AU,1724770662
411,berrahal,36.8353,7.4533,30.32,43,49,2.53,DZ,1724770663
412,gurupi,-11.7292,-49.0686,37.12,17,3,4.71,BR,1724770664
413,habo,57.9119,14.0744,20.31,64,40,6.17,SE,1724770665
414,ar rumaythah,31.5263,45.2025,44.72,11,0,8.19,IQ,1724770666
415,basoko,1.2391,23.616,31.13,45,32,1.32,CD,1724770667
416,puerto aysen,-45.4,-72.7,5.41,96,100,1.5,CL,1724770630
417,levuka,50.1834,-105.4011,17.85,63,20,5.66,CA,1724770671
418,greenbrier,36.4276,-86.8047,30.33,54,0,2.06,US,1724770672
419,cefalu,38.0386,14.0229,29.3,66,0,0.45,IT,1724770673
420,issaquah,47.5301,-122.0326,13.82,90,100,4.02,US,1724770674
421,mahina,-17.5065,-149.489,19.87,73,40,1.03,PF,1724770675
422,jiayuguan,39.8167,98.3,24.59,42,18,0.53,CN,1724770676
423,cockburn town,21.4612,-71.1419,28.68,75,8,6.14,TC,1724770677
424,saldanha,-33.0117,17.9442,13.03,71,86,12.59,ZA,1724770679
425,ulladulla,-35.35,150.4667,18.78,43,99,5.9,AU,1724770680
426,tual,-5.6667,132.75,25.66,85,96,10.18,ID,1724770681
427,kloulklubed,7.0419,134.2556,28.72,72,95,0.64,PW,1724770682
428,tasqala,51.1167,50.3167,25.12,32,0,3.95,KZ,1724770684
429,weno,7.4515,151.8468,29.09,74,81,4.08,FM,1724770685
430,tchamba,9.0333,1.4167,24.33,92,100,3.41,TG,1724770687
431,zelenoborskiy,66.845,32.3622,15.43,57,3,8.72,RU,1724770688
432,kaoma,-14.7833,24.8,31.33,7,6,2.79,ZM,1724770689
433,halabjah,35.1778,45.9861,36.41,10,2,3.87,IQ,1724770690
434,aldan,58.6031,125.3894,10.26,95,97,0.62,RU,1724770691
435,naze,28.3667,129.4833,25.51,93,100,19.44,JP,1724770692
436,la tuque,47.4334,-72.7824,23.14,73,26,2.06,CA,1724770675
437,horta,38.5333,-28.6333,25.8,68,20,6.26,PT,1724770694
438,puerto el triunfo,13.2833,-88.55,28.52,73,100,0.39,SV,1724770696
439,la passe,45.5549,-0.8967,30.07,27,1,2.16,FR,1724770697
440,faaa,-17.55,-149.6,19.98,73,40,1.03,PF,1724770685
441,ezhva,61.8128,50.7283,22.88,43,20,4.0,RU,1724770699
442,yeppoon,-23.1333,150.7333,19.64,85,56,2.59,AU,1724770700
443,olyokminsk,60.3736,120.4264,12.54,96,100,1.16,RU,1724770701
444,fort mcmurray,56.7268,-111.381,16.77,59,100,8.75,CA,1724770702
445,ocean shores,46.9737,-124.1563,15.01,87,20,2.06,US,1724770703
446,vila franca do campo,37.7167,-25.4333,27.23,59,1,5.25,PT,1724770705
447,san patricio,28.017,-97.5169,30.62,57,54,1.39,US,1724770706
448,queenstown,-31.8976,26.8753,22.44,12,0,15.02,ZA,1724770531
449,antsiranana,-12.2787,49.2917,25.42,53,20,9.26,MG,1724770708
450,bubaque,11.2833,-15.8333,27.32,82,64,6.2,GW,1724770709
451,hasaki,35.7333,140.8333,27.11,83,69,7.44,JP,1724770710
452,salinopolis,-0.6136,-47.3561,29.01,73,15,4.96,BR,1724770711
453,egersund,58.4513,5.9997,16.64,89,100,7.54,NO,1724770713
454,tannum sands,-23.9504,151.3693,17.94,94,3,0.0,AU,1724770714
455,godech,43.015,23.0442,25.65,29,99,5.43,BG,1724770715
456,pocito,-31.6833,-68.5833,16.86,26,5,3.49,AR,1724770716
457,nalhati,24.3,87.8167,28.25,81,10,1.9,IN,1724770717
458,troitskiy,57.0603,63.7481,16.48,78,26,1.6,RU,1724770719
459,fortuna,40.5982,-124.1573,14.96,96,100,0.0,US,1724770720
460,urengoy,65.9667,78.3667,15.29,83,84,1.09,RU,1724770722
461,kitimat,54.0524,-128.6534,10.38,27,64,0.28,CA,1724770723
462,sheridan,44.8333,-106.9173,21.28,51,0,1.33,US,1724770557
463,holualoa,19.6228,-155.9522,20.91,83,75,1.54,US,1724770725
464,mirialguda,16.8667,79.5833,27.82,72,100,3.08,IN,1724770726
465,sambava,-14.2667,50.1667,23.15,71,30,7.88,MG,1724770727
466,coahuayana de hidalgo,18.7,-103.6583,29.12,69,27,1.01,MX,1724770728
467,coxen hole,16.3244,-86.5366,29.6,74,20,3.09,HN,1724770682
468,kulu,39.0951,33.0799,29.42,24,0,2.61,TR,1724770731
469,usogorsk,63.4106,48.6872,19.96,46,98,3.07,RU,1724770732
470,san juan de miraflores,-12.1629,-76.9635,14.29,81,89,2.81,PE,1724770573
471,flying fish cove,-10.4217,105.6791,24.82,83,75,6.69,CX,1724770734
472,kabare,-2.4683,28.8242,24.1,47,90,1.7,CD,1724770735
473,alotau,-10.3069,150.4462,21.86,95,99,1.59,PG,1724770736
474,pariaman,-0.619,100.12,23.03,91,100,4.98,ID,1724770638
475,shengli,37.4564,118.4856,21.6,81,0,2.89,CN,1724770739
476,beroroha,-21.6667,45.1667,28.02,21,0,2.09,MG,1724770740
477,igarka,67.4667,86.5833,13.3,93,92,1.55,RU,1724770741
478,malanje,-9.5402,16.341,32.52,10,7,3.24,AO,1724770742
479,hafnarfjordur,64.0671,-21.9377,13.93,58,0,4.12,IS,1724770744
480,kiunga,-6.1219,141.2906,22.11,99,41,1.34,PG,1724770745
481,jupiter,26.9342,-80.0942,32.8,74,20,3.6,US,1724770592
482,dembi dolo,8.5333,34.8,16.82,93,40,1.5,ET,1724770748
483,krasnovishersk,60.4078,57.082,18.46,81,55,1.57,RU,1724770749
484,villa la angostura,-40.7617,-71.6463,4.04,70,46,1.46,AR,1724770694
485,gore,-46.1028,168.9436,6.64,98,61,1.48,NZ,1724770751
486,slave lake,55.2834,-114.769,12.99,82,75,3.09,CA,1724770675
487,glace bay,46.1969,-59.957,25.08,56,40,5.14,CA,1724770753
488,palmer,42.1584,-72.3287,26.29,57,0,1.52,US,1724770754
489,talcahuano,-36.7167,-73.1167,8.82,71,0,3.09,CL,1724770617
490,sarangani,5.4033,125.4636,29.01,73,100,4.78,PH,1724770757
491,robore,-18.3333,-59.75,19.05,55,5,0.0,BO,1724770758
492,suzun,53.7841,82.3116,12.61,87,20,1.5,RU,1724770759
493,newcastle west,52.4492,-9.0611,19.62,59,39,4.04,IE,1724770760
494,jaffna,9.6685,80.0074,28.13,83,97,9.79,LK,1724770761
495,greenville,35.6127,-77.3663,30.08,71,0,3.09,US,1724770757
496,diveyevo,55.0433,43.2418,25.48,54,5,1.59,RU,1724770763
497,gracemere,-23.4333,150.45,17.99,100,2,0.0,AU,1724770765
498,mejit,10.2753,170.8646,28.47,79,91,6.91,MH,1724770766
499,swift current,50.2834,-107.8014,17.45,63,0,8.75,CA,1724770767
500,qamdo,31.1667,97.2333,10.48,65,17,1.4,CN,1724770768
501,floriano,-6.7669,-43.0225,37.08,20,100,4.27,BR,1724770769
502,launceston,-41.45,147.1667,9.8,81,100,9.26,AU,1724770770
503,kargopol',61.5071,38.9456,18.98,54,100,1.91,RU,1724770771
504,sosnovka,56.255,51.2842,20.93,65,0,1.5,RU,1724770773
505,pacific grove,36.6177,-121.9166,22.43,80,100,2.06,US,1724770774
506,lotoshino,56.2267,35.6414,27.06,57,18,1.55,RU,1724770775
507,tabou,4.423,-7.3528,23.56,88,100,5.16,CI,1724770776
508,arenapolis,-14.4503,-56.8461,32.26,19,0,1.74,BR,1724770727
509,jaszkiser,47.45,20.2167,35.02,25,81,4.16,HU,1724770778
510,manokwari,-0.8667,134.0833,25.97,84,76,1.83,ID,1724770779
511,zheshart,62.0731,49.5733,19.68,55,21,1.96,RU,1724770781
512,nowogrod bobrzanski,51.7986,15.2352,24.95,54,0,3.7,PL,1724770782
513,jerseyville,39.12,-90.3285,30.24,56,7,4.53,US,1724770783
514,guerrero negro,27.9769,-114.0611,21.87,74,4,4.91,MX,1724770784
515,al hazm,16.1641,44.7769,28.16,42,100,3.53,YE,1724770785
516,ciudad del carmen,18.6333,-91.8333,28.24,73,100,3.5,MX,1724770786
517,ad dilam,23.9915,47.1627,43.34,9,35,5.95,SA,1724770787
518,xining,36.6167,101.7667,18.15,76,91,1.33,CN,1724770789
519,aginskoye,51.1,114.53,14.69,81,1,3.85,RU,1724770790
520,tuytepa,41.0321,69.3625,27.19,16,40,2.93,UZ,1724770791
521,veinticinco de mayo,-35.4323,-60.1727,15.26,49,0,1.73,AR,1724770792
522,hailey,43.5196,-114.3153,7.92,61,0,6.17,US,1724770793
523,katsuura,35.1333,140.3,27.01,86,100,6.53,JP,1724770794
524,hami,42.8,93.45,32.77,18,12,2.31,CN,1724770795
525,east porterville,36.0574,-118.9757,16.9,63,0,1.54,US,1724770796
526,copiapo,-27.3667,-70.3333,20.05,36,0,1.54,CL,1724770798
527,cerro de ortega,18.75,-103.7667,29.31,68,36,1.4,MX,1724770799
528,del rio,29.3627,-100.8968,26.74,70,75,4.63,US,1724770800
529,chinde,26.8212,87.7095,25.38,88,58,1.04,NP,1724770801
530,tari,-11.1105,14.3559,26.44,39,2,3.65,AO,1724770802
531,kingston,17.997,-76.7936,28.53,84,75,7.2,JM,1724770534
532,brandon,27.9378,-82.2859,31.78,78,0,4.02,US,1724770804
533,booue,-0.0921,11.9385,33.65,37,84,0.69,GA,1724770806
534,san fernando,15.0286,120.6898,26.85,89,99,2.5,PH,1724770705
535,amga,60.8953,131.9608,7.39,72,86,0.38,RU,1724770808
536,oppdal,62.5943,9.6912,13.05,58,100,5.14,NO,1724770809
537,parabel',58.6978,81.4825,13.28,95,95,3.15,RU,1724770810
538,taco pozo,-25.6167,-63.2833,20.42,22,94,2.37,AR,1724770811
539,aykhal,66.0,111.5,8.74,70,81,1.81,RU,1724770812
540,martapura,-3.4167,114.85,23.91,90,67,0.15,ID,1724770665
541,san luis de la loma,17.2706,-100.8939,28.48,76,83,0.29,MX,1724770815
542,el granada,37.5027,-122.4694,17.54,89,0,0.0,US,1724770816
543,kura,11.7697,8.4303,30.73,54,65,3.92,NG,1724770817
544,petit valley,10.7,-61.5333,25.88,78,19,2.18,TT,1724770818
545,santa ana,33.7456,-117.8678,20.99,91,0,0.45,US,1724770819
546,port-vila,-17.7338,168.3219,16.78,100,20,1.03,VU,1724770820
547,freeland,43.525,-84.1228,27.19,84,0,3.6,US,1724770821
548,ulsteinvik,62.3432,5.8487,14.5,89,100,1.34,NO,1724770823
549,hovd,48.0056,91.6419,21.3,29,100,1.21,MN,1724770824
550,amahai,-3.3333,128.9167,25.28,91,100,3.18,ID,1724770825
551,kandi,11.1342,2.9386,27.23,79,98,2.65,BJ,1724770826
552,heyuan,23.7333,114.6833,29.7,77,100,1.22,CN,1724770827
553,porto novo,6.4965,2.6036,26.9,72,82,6.52,BJ,1724770828
554,kone,-21.0595,164.8658,18.12,86,41,2.68,NC,1724770829
555,gannan,47.9147,123.5031,17.47,82,100,2.95,CN,1724770831
556,mil'kovo,55.6078,37.7956,28.68,46,15,2.15,RU,1724770832
557,mantua,45.1667,10.7833,31.34,35,23,5.6,IT,1724770833
558,zouerate,22.7187,-12.4521,42.89,16,28,5.37,MR,1724770834
559,beau vallon,-20.4189,57.6953,19.13,88,40,9.26,MU,1724770835
560,vilyuysk,63.7553,121.6247,7.65,62,100,2.47,RU,1724770836
561,keflavik,64.0049,-22.5624,10.24,81,100,3.09,IS,1724770837
562,ocean city,39.2776,-74.5746,28.36,74,0,2.24,US,1724770803
563,sodankyla,67.4167,26.6,13.97,58,12,6.61,FI,1724770840
564,grand falls-windsor,48.9332,-55.6649,24.88,51,97,2.45,CA,1724770841
565,newport,51.5877,-2.9984,22.06,65,100,7.44,GB,1724770558
566,adrar,20.5022,-10.0711,42.78,15,56,7.13,MR,1724770843
567,caleta de carquin,-11.0925,-77.6267,17.87,81,83,3.06,PE,1724770844
568,soran,49.78,72.8506,16.28,50,99,5.24,KZ,1724770845
569,icano,-28.9193,-65.3282,19.65,28,0,4.86,AR,1724770654
570,borzya,50.3833,116.5167,15.3,91,82,2.44,RU,1724770847
571,ghanzi,-21.5667,21.7833,31.62,8,0,2.98,BW,1724770849
572,calbuco,-41.768,-73.1273,6.93,70,48,3.33,CL,1724770850
573,gobabis,-22.45,18.9667,30.74,6,0,5.77,NA,1724770852
574,khuzdar,27.7384,66.6434,22.8,82,86,3.19,PK,1724770853
575,koshki,54.2091,50.4677,22.02,45,0,2.83,RU,1724770854
576,guarapari,-20.6667,-40.4975,20.15,67,96,6.04,BR,1724770856
577,simcoe,42.8334,-80.2997,26.08,87,16,4.53,CA,1724770858
578,portland,45.5234,-122.6762,16.45,81,100,1.34,US,1724770860
579,sarina,-21.4333,149.2167,19.59,1,15,1.76,AU,1724770861
580,morehead city,34.7229,-76.726,29.47,79,0,1.79,US,1724770687
581,jamaame,0.0697,42.745,26.17,78,90,5.48,SO,1724770863
582,sinabang,2.4803,96.3801,23.72,91,100,3.48,ID,1724770864
583,chistopol',55.3631,50.6424,20.82,58,1,0.95,RU,1724770866
584,rikaze,29.25,88.8833,16.67,41,44,2.33,CN,1724770867
